LINE,X,Y,FID,Z,BALT,LASER,ALTRADAR,DTM,MAGSP,DIURNAL,MAGLD,IGRF,MAG,CPPL,CXSP,CPSP,CPI400_CAL,CPQ400_CAL,CPI1800_CAL,CPQ1800_CAL,CXI3300_CAL,CXQ3300_CAL,CPI8200_CAL,CPQ8200_CAL,CPI40K_CAL,CPQ40K_CAL,CPI140K_CAL,CPQ140K_CAL,CPI400_R,CPQ400_R,CPI1800_R,CPQ1800_R,CXI3300_R,CXQ3300_R,CPI8200_R,CPQ8200_R,CPI40K_R,CPQ40K_R,CPI140K_R,CPQ140K_R,CPI400,CPQ400,CPI1800,CPQ1800,CXI3300,CXQ3300,CPI8200,CPQ8200,CPI40K,CPQ40K,CPI140K,CPQ140K,RES400,RES1800,RES3300,RES8200,RES40K,RES140K,DEP400,DEP1800,DEP3300,DEP8200,DEP40k,DEP140k,DRES400,DRES1800,DRES8200,DRES40K,DRES140K,DDEP400,DDEP1800,DDEP8200,DDEP40K,DDEP140K,CEN400,CEN1800,CEN8200,CEN40K,CEN140K,UTC,FLIGHT,DATE,LATWGS84,LONWGS84,ALTL_LP,ALTR,KPA,Z_BIRD,X_HELI,Y_HELI,Z_HELI,PITCH,ROLL,YAW,DRES_100_by5m[0],DRES_100_by5m[1],DRES_100_by5m[2],DRES_100_by5m[3],DRES_100_by5m[4],DRES_100_by5m[5],DRES_100_by5m[6],DRES_100_by5m[7],DRES_100_by5m[8],DRES_100_by5m[9],DRES_100_by5m[10],DRES_100_by5m[11],DRES_100_by5m[12],DRES_100_by5m[13],DRES_100_by5m[14],DRES_100_by5m[15],DRES_100_by5m[16],DRES_100_by5m[17],DRES_100_by5m[18],DRES_100_by5m[19],DRES_100_by5m[20]
10010,601794.793,4657870.781,3884.0,284.306,254.132,60.668,87.365,224.562,53712.532,-5.757,53718.265,53954.504,-227.147,0.0009922,5.51e-05,0.0003115,22.869,28.572,58.797,73.473,46.275,33.788,127.727,101.898,339.099,160.333,457.228,122.813,23.179,30.565,63.918,77.853,35.718,34.546,125.723,111.455,359.301,171.325,481.13,129.171,23.13,31.025,63.935,77.849,35.718,34.647,150.227,133.6,359.172,171.252,480.954,128.823,20.61,44.53,45.6,76.34,73.24,68.17,23.49,4.09,4.66,-1.5,-4.07,-3.04,9.76,27.12,79.04,80.03,68.17,85.18,55.83,31.04,15.03,5.69,58.37,39.36,23.86,10.66,5.69,56716.0,55002,20170405,42.06630843,-91.7695875,60.61,285.492,98.368,284.306,601798.888,4657861.091,315.935,10.787,-0.426,0.436,68.17,68.17,73.41,79.99,79.72,79.41,79.1,66.62,53.69,43.27,34.87,28.1,23.45,19.7,16.55,13.91,11.69,9.82,-99999.0,-99999.0,-99999.0
10010,601794.569,4657871.495,3884.1,284.184,253.541,60.52,87.266,224.58,53712.472,-5.757,53718.301,53954.51,-227.117,0.0009,3.54e-05,0.0002224,23.055,28.916,59.308,73.821,44.74,33.426,129.829,102.262,342.092,161.298,458.348,123.794,23.534,30.62,64.237,78.247,34.245,34.246,126.098,112.525,361.283,172.463,482.138,130.326,23.486,31.08,64.254,78.243,34.245,34.347,150.677,134.884,361.154,172.389,481.962,129.979,20.08,44.38,49.14,76.92,73.11,68.98,24.04,4.12,4.43,-1.63,-4.05,-2.99,9.24,26.72,80.27,78.58,68.98,84.49,55.85,31.11,15.05,5.72,57.62,39.29,23.96,10.65,5.72,56716.1,55002,20170405,42.06631489,-91.76959009,60.52,286.865,98.375,284.184,601798.621,4657861.664,315.792,10.733,-0.47,-0.118,68.98,68.98,73.23,78.53,79.1,79.62,80.15,67.53,54.07,43.29,34.66,27.75,22.91,19.03,15.81,13.14,10.91,9.24,-99999.0,-99999.0,-99999.0
10010,601794.345,4657872.209,3884.2,284.062,251.766,60.379,87.163,224.605,53712.44,-5.756,53718.332,53954.516,-227.091,0.0011834,3.2e-05,0.000185,22.965,29.439,59.786,74.22,43.184,33.587,130.579,102.614,344.634,162.391,459.379,124.684,23.999,30.698,64.62,78.625,33.017,33.887,126.658,113.266,363.111,173.675,483.012,131.775,23.95,31.158,64.637,78.621,33.018,33.988,151.349,135.772,362.982,173.602,482.836,131.427,19.43,44.15,52.18,76.93,73.12,70.13,24.69,4.19,4.34,-1.63,-4.03,-2.94,8.62,26.43,80.28,77.01,70.13,83.6,55.76,31.12,15.09,5.77,56.68,39.19,23.96,10.65,5.77,56716.2,55002,20170405,42.06632134,-91.76959267,60.39,290.985,98.395,284.062,601798.354,4657862.237,315.649,10.744,-0.543,-0.666,70.13,70.13,73.17,76.94,78.0,79.01,80.05,67.38,53.78,42.93,34.26,27.35,22.28,18.22,14.9,12.18,9.96,-99999.0,-99999.0,-99999.0,-99999.0
10010,601794.12,4657872.922,3884.3,283.941,251.175,60.251,87.061,224.634,53712.44,-5.756,53718.352,53954.522,-227.078,0.0009939,3.92e-05,0.0001681,22.832,30.081,60.357,74.848,42.285,33.959,130.154,102.946,346.305,163.718,462.162,125.924,24.498,30.815,65.104,78.984,32.009,33.523,127.312,113.741,364.718,174.886,483.889,133.371,24.45,31.275,65.121,78.981,32.009,33.625,152.134,136.343,364.588,174.812,483.713,133.023,18.78,43.77,54.77,76.56,73.24,71.43,25.3,4.31,4.34,-1.55,-4.0,-2.9,8.05,26.1,79.46,75.54,71.43,82.66,55.57,31.07,15.15,5.82,55.73,39.02,23.9,10.66,5.82,56716.3,55002,20170405,42.0663278,-91.76959526,60.22,287.781,98.402,283.941,601798.087,4657862.811,315.506,10.825,-0.644,-1.206,71.43,71.43,73.24,75.47,76.71,77.94,79.19,66.47,52.96,42.19,33.61,26.78,21.53,17.33,13.95,11.23,9.03,-99999.0,-99999.0,-99999.0,-99999.0
10010,601793.896,4657873.636,3884.4,283.819,251.175,60.14,86.961,224.666,53712.456,-5.755,53718.355,53954.528,-227.08,0.0010847,9.7e-06,0.00011,22.802,30.508,61.151,75.626,42.048,34.389,128.862,103.432,347.761,165.331,467.369,127.227,24.946,30.988,65.684,79.326,31.083,33.207,127.997,114.039,366.036,175.988,484.957,134.92,24.897,31.448,65.701,79.322,31.084,33.308,152.956,136.7,365.907,175.915,484.781,134.572,18.28,43.27,57.36,75.97,73.41,72.62,25.71,4.48,4.32,-1.42,-3.95,-2.86,7.66,25.69,78.19,74.41,72.62,81.83,55.3,31.0,15.2,5.87,54.98,38.8,23.81,10.67,5.87,56716.4,55002,20170405,42.06633425,-91.76959785,60.1,284.958,98.402,283.819,601797.82,4657863.384,315.362,10.98,-0.772,-1.739,72.62,72.62,73.41,74.37,75.54,76.73,77.94,65.11,51.78,41.18,32.75,26.05,20.74,16.51,13.14,10.46,8.33,-99999.0,-99999.0,-99999.0,-99999.0
10010,601793.672,4657874.349,3884.5,283.698,250.583,60.05,86.869,224.697,53712.448,-5.755,53718.351,53954.533,-227.091,0.0013126,1.71e-05,0.0001224,22.843,30.488,62.104,76.288,41.892,34.902,127.066,104.422,350.001,167.039,473.472,127.943,25.27,31.221,66.33,79.648,30.087,32.971,128.695,114.218,367.049,176.906,486.431,136.245,25.222,31.681,66.347,79.644,30.087,33.072,153.794,136.916,366.92,176.833,486.255,135.898,18.0,42.68,60.63,75.27,73.6,73.41,25.83,4.68,4.13,-1.25,-3.89,-2.82,7.53,25.23,76.69,73.83,73.41,81.25,54.98,30.92,15.24,5.9,54.56,38.53,23.7,10.68,5.9,56716.5,55002,20170405,42.06634071,-91.76960044,59.94,283.432,98.409,283.698,601797.553,4657863.958,315.219,11.211,-0.925,-2.266,73.41,73.41,73.6,73.82,74.69,75.6,76.52,63.51,50.41,40.01,31.75,25.2,20.02,15.91,12.64,10.04,7.98,-99999.0,-99999.0,-99999.0,-99999.0
10010,601793.447,4657875.063,3884.6,283.576,250.583,59.981,86.785,224.724,53712.42,-5.754,53718.342,53954.539,-227.106,0.0014725,1.13e-05,5.56e-05,22.86,30.266,62.978,76.707,41.234,35.424,125.339,106.177,352.993,168.496,477.988,127.895,25.436,31.497,66.992,79.94,28.953,32.819,129.462,114.266,367.816,177.625,488.391,137.259,25.388,31.957,67.009,79.936,28.954,32.92,154.715,136.973,367.687,177.552,488.215,136.911,17.97,42.07,65.0,74.36,73.76,73.7,25.67,4.89,3.68,-1.04,-3.81,-2.77,7.65,24.81,74.87,73.83,73.7,80.97,54.61,30.8,15.26,5.91,54.5,38.25,23.55,10.69,5.91,56716.6,55002,20170405,42.06634716,-91.76960302,59.87,282.593,98.409,283.576,601797.286,4657864.531,315.076,11.515,-1.103,-2.786,73.7,73.7,73.75,73.83,74.14,74.48,74.81,61.62,48.87,38.75,30.73,24.39,19.51,15.61,12.48,9.99,7.99,-99999.0,-99999.0,-99999.0,-99999.0
10010,601793.223,4657875.777,3884.7,283.454,250.879,59.935,86.709,224.744,53712.388,-5.753,53718.325,53954.545,-227.129,0.0011185,2.46e-05,0.0002411,22.807,30.279,63.564,77.012,39.723,35.743,124.229,108.521,355.712,169.546,479.883,127.513,25.459,31.783,67.613,80.186,27.741,32.728,130.425,114.101,368.436,178.196,490.703,137.963,25.411,32.243,67.63,80.182,27.741,32.829,155.87,136.775,368.307,178.122,490.527,137.616,18.13,41.49,70.37,73.02,73.87,73.52,25.3,5.1,3.03,-0.77,-3.72,-2.72,7.97,24.58,72.32,74.31,73.52,80.96,54.21,30.63,15.27,5.9,54.75,37.99,23.34,10.7,5.9,56716.7,55002,20170405,42.06635362,-91.76960561,59.8,282.364,98.405,283.454,601797.019,4657865.104,314.933,11.892,-1.305,-3.301,73.52,73.52,73.87,74.29,73.69,73.04,72.4,59.2,47.09,37.46,29.8,23.77,19.26,15.6,12.64,10.24,8.29,-99999.0,-99999.0,-99999.0,-99999.0
10010,601792.999,4657876.49,3884.8,283.333,251.766,59.909,86.643,224.757,53712.388,-5.753,53718.301,53954.551,-227.16,0.0012012,3.86e-05,0.000241,22.723,30.558,63.833,77.376,37.44,35.698,123.889,110.834,357.539,170.315,480.243,127.366,25.383,32.042,68.142,80.369,26.585,32.672,131.662,113.631,368.992,178.691,493.064,138.41,25.335,32.502,68.159,80.365,26.585,32.773,157.354,136.211,368.863,178.617,492.888,138.062,18.41,40.99,76.16,71.11,73.97,73.07,24.85,5.31,2.3,-0.4,-3.63,-2.67,8.39,24.65,68.81,75.09,73.07,81.12,53.75,30.36,15.25,5.89,55.17,37.76,23.03,10.71,5.89,56716.8,55002,20170405,42.06636007,-91.7696082,59.83,283.279,98.395,283.333,601796.752,4657865.678,314.79,12.335,-1.53,-3.811,73.07,73.07,73.95,75.04,73.06,70.98,68.95,56.14,45.07,36.19,29.06,23.47,19.27,15.82,12.99,10.67,8.76,-99999.0,-99999.0,-99999.0,-99999.0
10010,601792.774,4657877.204,3884.9,283.211,252.949,59.901,86.586,224.763,53712.416,-5.752,53718.26,53954.557,-227.208,0.0015511,6.29e-05,9.67e-05,22.731,30.738,63.917,77.837,35.062,35.272,124.201,112.466,359.041,171.019,480.745,127.904,25.258,32.247,68.549,80.482,25.609,32.642,133.102,112.836,369.512,179.15,495.144,138.664,25.209,32.708,68.566,80.478,25.609,32.743,159.083,135.258,369.383,179.077,494.968,138.316,18.72,40.59,81.61,68.71,74.05,72.53,24.44,5.51,1.59,0.06,-3.55,-2.6,8.82,25.05,64.54,75.97,72.53,81.35,53.25,30.03,15.24,5.87,55.63,37.58,22.64,10.72,5.87,56716.9,55002,20170405,42.06636653,-91.76961078,59.74,282.059,98.382,283.211,601796.485,4657866.251,314.647,12.837,-1.777,-4.317,72.53,72.53,74.03,75.88,72.09,68.22,64.56,52.7,42.99,35.06,28.6,23.48,19.5,16.19,13.45,11.17,9.27,-99999.0,-99999.0,-99999.0,-99999.0
10010,601792.55,4657877.918,3885.0,283.089,252.949,59.906,86.542,224.762,53712.448,-5.752,53718.192,53954.563,-227.283,0.0011484,3.69e-05,0.0001954,23.02,30.639,64.011,78.325,33.347,34.57,125.079,113.212,361.057,171.934,482.029,129.376,25.116,32.391,68.815,80.53,24.851,32.641,134.561,111.803,369.979,179.564,496.721,138.787,25.067,32.851,68.832,80.526,24.851,32.742,160.833,134.017,369.85,179.491,496.544,138.44,19.01,40.32,86.27,66.17,74.13,72.06,24.11,5.69,1.01,0.58,-3.47,-2.52,9.21,25.69,60.15,76.76,72.06,81.61,52.78,29.66,15.23,5.85,56.06,37.45,22.22,10.72,5.85,56717.0,55002,20170405,42.06637298,-91.76961337,59.85,284.653,98.382,283.089,601796.218,4657866.825,314.504,13.391,-2.046,-4.82,72.06,72.06,74.11,76.64,70.82,65.08,59.41,49.42,41.12,34.21,28.46,23.74,19.87,16.63,13.92,11.66,9.76,-99999.0,-99999.0,-99999.0,-99999.0
10010,601792.296,4657878.557,3885.1,283.026,252.653,59.925,86.509,224.812,53712.468,-5.751,53718.107,53954.567,-227.372,0.0011229,1.51e-05,0.0003083,23.743,30.502,64.287,78.737,32.434,33.806,126.371,113.443,363.522,173.38,483.511,131.563,24.981,32.489,68.928,80.523,24.258,32.683,135.824,110.693,370.363,179.901,497.759,138.808,24.933,32.949,68.945,80.519,24.258,32.785,162.349,132.686,370.234,179.827,497.583,138.46,19.27,40.19,90.29,63.85,74.18,71.7,23.86,5.84,0.48,1.08,-3.39,-2.43,9.53,26.45,56.28,77.38,71.7,81.88,52.39,29.32,15.22,5.83,56.44,37.39,21.83,10.73,5.83,56717.1,55002,20170405,42.06637877,-91.76961633,59.9,285.263,98.385,283.026,601795.891,4657867.34,314.352,13.986,-2.335,-5.319,71.7,71.7,74.17,77.25,69.46,62.05,55.04,46.73,39.68,33.69,28.6,24.16,20.32,17.09,14.38,12.09,10.17,-99999.0,-99999.0,-99999.0,-99999.0
10010,601792.041,4657879.197,3885.2,282.962,253.836,59.965,86.489,224.851,53712.472,-5.751,53718.027,53954.57,-227.458,0.0010076,3.1e-05,0.0002469,24.772,30.586,64.844,79.024,31.918,33.231,127.617,113.758,365.651,175.245,484.383,133.784,24.876,32.57,68.899,80.472,23.741,32.793,136.713,109.701,370.647,180.143,498.399,138.726,24.827,33.031,68.916,80.468,23.741,32.894,163.416,131.495,370.518,180.07,498.222,138.379,19.47,40.19,94.23,62.07,74.22,71.38,23.67,5.96,-0.09,1.51,-3.31,-2.34,9.76,27.19,53.39,77.9,71.38,82.13,52.13,29.06,15.21,5.82,56.74,37.39,21.52,10.73,5.82,56717.2,55002,20170405,42.06638457,-91.7696193,59.89,280.914,98.372,282.962,601795.564,4657867.855,314.2,14.61,-2.643,-5.814,71.38,71.38,74.21,77.75,68.36,59.64,51.93,44.87,38.77,33.49,28.94,24.65,20.78,17.52,14.77,12.45,10.49,-99999.0,-99999.0,-99999.0,-99999.0
10010,601791.787,4657879.837,3885.3,282.898,251.47,60.034,86.476,224.875,53712.484,-5.75,53717.962,53954.574,-227.527,0.0010825,4.57e-05,0.0001387,25.667,30.841,65.629,79.273,31.392,32.957,128.368,114.398,366.919,176.795,484.538,135.53,24.813,32.657,68.757,80.383,23.234,33.001,137.128,108.974,370.838,180.305,498.884,138.55,24.764,33.117,68.774,80.379,23.234,33.103,163.914,130.622,370.709,180.232,498.708,138.203,19.62,40.29,98.62,61.03,74.25,71.03,23.52,6.05,-0.82,1.82,-3.23,-2.25,9.89,27.78,51.71,78.44,71.03,82.36,52.02,28.9,15.2,5.8,56.96,37.44,21.34,10.73,5.8,56717.3,55002,20170405,42.06639036,-91.76962226,59.97,283.89,98.399,282.898,601795.237,4657868.37,314.049,15.25,-2.969,-6.307,71.03,71.03,74.25,78.28,67.79,58.23,50.21,43.89,38.37,33.55,29.33,25.1,21.17,17.86,15.06,12.71,10.72,-99999.0,-99999.0,-99999.0,-99999.0
10010,601791.532,4657880.477,3885.4,282.835,250.583,60.141,86.466,224.882,53712.508,-5.749,53717.917,53954.578,-227.577,0.0008937,2.11e-05,0.0001635,26.05,31.098,66.421,79.614,30.636,32.885,128.705,115.14,367.464,177.491,484.711,136.827,24.793,32.75,68.532,80.268,22.736,33.329,137.084,108.558,370.953,180.412,499.4,138.308,24.745,33.21,68.549,80.264,22.737,33.431,163.861,130.124,370.824,180.338,499.223,137.961,19.71,40.48,103.56,60.71,74.27,70.6,23.39,6.11,-1.74,1.99,-3.17,-2.18,9.94,28.17,51.21,79.08,70.6,82.54,52.04,28.85,15.19,5.79,57.09,37.52,21.28,10.73,5.79,56717.4,55002,20170405,42.06639616,-91.76962523,60.01,284.5,98.409,282.835,601794.91,4657868.885,313.897,15.893,-3.311,-6.795,70.6,70.6,74.28,78.9,67.85,57.88,49.71,43.7,38.42,33.78,29.69,25.46,21.47,18.1,15.25,12.86,10.84,-99999.0,-99999.0,-99999.0,-99999.0
10010,601791.278,4657881.117,3885.5,282.771,249.992,60.287,86.454,224.872,53712.544,-5.749,53717.873,53954.582,-227.626,0.0010953,4.16e-05,0.0001979,25.969,31.391,67.044,80.029,29.457,32.818,129.068,115.669,367.787,177.695,486.183,137.814,24.807,32.838,68.237,80.138,22.302,33.766,136.704,108.392,371.005,180.486,499.977,138.045,24.759,33.298,68.254,80.134,22.302,33.867,163.405,129.925,370.876,180.412,499.8,137.697,19.75,40.73,108.58,60.94,74.3,70.13,23.3,6.14,-2.75,2.07,-3.13,-2.13,9.91,28.42,51.55,79.8,70.13,82.69,52.18,28.89,15.17,5.77,57.15,37.64,21.32,10.73,5.77,56717.5,55002,20170405,42.06640195,-91.76962819,60.1,282.516,98.416,282.771,601794.583,4657869.4,313.745,16.525,-3.666,-7.278,70.13,70.13,74.33,79.62,68.42,58.35,50.11,44.09,38.8,34.14,30.04,25.78,21.69,18.25,15.36,12.92,10.87,-99999.0,-99999.0,-99999.0,-99999.0
10010,601791.023,4657881.756,3885.6,282.707,250.879,60.467,86.438,224.849,53712.576,-5.748,53717.816,53954.586,-227.688,0.0011167,5.52e-05,0.0001473,25.745,31.834,67.605,80.373,27.761,32.637,129.729,115.742,368.286,178.06,489.966,138.434,24.841,32.898,67.878,80.007,21.986,34.263,136.15,108.362,370.997,180.555,500.584,137.81,24.793,33.358,67.895,80.003,21.986,34.364,162.74,129.888,370.868,180.481,500.408,137.463,19.75,41.06,112.97,61.47,74.35,69.69,23.28,6.13,-3.72,2.08,-3.09,-2.09,9.8,28.63,52.35,80.57,69.69,82.81,52.39,28.97,15.16,5.75,57.14,37.79,21.42,10.74,5.75,56717.6,55002,20170405,42.06640774,-91.76963115,60.34,287.628,98.405,282.707,601794.256,4657869.915,313.594,17.132,-4.032,-7.755,69.69,69.69,74.41,80.38,69.27,59.26,50.98,44.82,39.4,34.64,30.45,26.12,21.9,18.36,15.4,12.91,10.82,-99999.0,-99999.0,-99999.0,-99999.0
10010,601790.769,4657882.396,3885.7,282.643,251.175,60.667,86.414,224.818,53712.596,-5.748,53717.748,53954.59,-227.762,0.0007044,5.06e-05,0.0001352,25.549,32.314,68.357,80.563,25.916,32.385,130.808,115.193,369.011,178.664,495.324,138.699,24.893,32.889,67.478,79.876,21.805,34.748,135.547,108.38,370.923,180.657,501.175,137.668,24.845,33.349,67.495,79.872,21.805,34.849,162.016,129.91,370.795,180.584,500.999,137.32,19.66,41.45,116.21,62.09,74.47,69.34,23.4,6.1,-4.51,2.06,-3.07,-2.06,9.6,28.88,53.27,81.35,69.34,82.86,52.63,29.08,15.15,5.73,57.02,37.97,21.52,10.75,5.73,56717.7,55002,20170405,42.06641354,-91.76963412,60.73,286.484,98.402,282.643,601793.929,4657870.43,313.442,17.703,-4.403,-8.225,69.34,69.34,74.54,81.14,70.2,60.3,52.0,45.67,40.1,35.22,30.92,26.49,22.08,18.41,15.34,12.79,10.66,-99999.0,-99999.0,-99999.0,-99999.0
10010,601790.514,4657883.036,3885.8,282.58,251.175,60.869,86.382,224.783,53712.6,-5.747,53717.659,53954.594,-227.855,0.0010357,2.81e-05,0.0002363,25.332,32.572,69.262,80.649,24.661,32.219,132.561,113.99,369.721,179.222,499.642,138.859,24.963,32.773,67.068,79.739,21.728,35.154,134.986,108.416,370.772,180.84,501.682,137.702,24.915,33.233,67.085,79.735,21.728,35.255,161.344,129.953,370.643,180.766,501.505,137.355,19.49,41.84,118.27,62.7,74.67,69.19,23.73,6.07,-5.08,2.04,-3.05,-2.05,9.3,29.15,54.1,82.08,69.19,82.8,52.88,29.18,15.16,5.73,56.76,38.15,21.63,10.76,5.73,56717.8,55002,20170405,42.06641933,-91.76963708,60.94,287.857,98.402,282.58,601793.602,4657870.945,313.29,18.225,-4.774,-8.685,69.19,69.19,74.76,81.85,71.08,61.26,52.96,46.48,40.8,35.81,31.43,26.88,22.21,18.35,15.16,12.52,10.35,-99999.0,-99999.0,-99999.0,-99999.0
10010,601790.26,4657883.676,3885.9,282.516,250.288,61.051,86.342,224.751,53712.596,-5.747,53717.551,53954.598,-227.969,0.0011742,4.98e-05,0.0004512,25.068,32.55,69.915,80.701,24.333,32.25,135.076,112.216,370.195,179.708,500.947,139.125,25.047,32.543,66.674,79.588,21.701,35.441,134.532,108.469,370.518,181.139,502.004,137.965,24.998,33.003,66.692,79.584,21.701,35.542,160.799,130.017,370.389,181.065,501.828,137.618,19.21,42.22,119.48,63.21,75.02,69.33,24.29,6.05,-5.43,2.03,-3.05,-2.04,8.9,29.44,54.72,82.73,69.33,82.6,53.1,29.28,15.19,5.73,56.36,38.32,21.72,10.79,5.73,56717.9,55002,20170405,42.06642513,-91.76964005,61.16,280.38,98.412,282.516,601793.275,4657871.46,313.139,18.687,-5.141,-9.136,69.33,69.33,75.08,82.44,71.84,62.04,53.7,47.15,41.39,36.34,31.91,27.25,22.25,18.17,14.84,12.11,9.89,-99999.0,-99999.0,-99999.0,-99999.0
10010,601790.005,4657884.316,3886.0,282.452,249.105,61.2,86.295,224.724,53712.588,-5.746,53717.418,53954.602,-228.107,0.0009324,3.93e-05,0.0001731,24.848,32.434,70.004,80.715,24.457,32.429,137.708,110.148,370.48,180.268,499.864,139.424,25.135,32.23,66.307,79.424,21.682,35.604,134.189,108.554,370.137,181.553,502.072,138.432,25.087,32.69,66.325,79.42,21.682,35.706,160.388,130.119,370.008,181.479,501.895,138.085,18.87,42.56,120.2,63.65,75.52,69.76,25.02,6.05,-5.62,2.02,-3.04,-2.03,8.46,29.7,55.1,83.32,69.76,82.31,53.29,29.38,15.23,5.75,55.86,38.48,21.79,10.82,5.75,56718.0,55002,20170405,42.06643092,-91.76964301,61.38,282.669,98.426,282.452,601792.947,4657871.975,312.987,19.083,-5.499,-9.574,69.76,69.76,75.54,82.96,72.48,62.62,54.22,47.65,41.88,36.8,32.34,27.59,22.22,17.89,14.41,11.61,9.35,-99999.0,-99999.0,-99999.0,-99999.0
10010,601789.678,4657884.869,3886.1,282.373,249.992,61.306,86.242,224.686,53712.572,-5.745,53717.281,53954.606,-228.249,0.0008819,4.25e-05,0.0001337,24.719,32.4,69.616,80.649,24.262,32.617,139.383,108.408,370.78,180.781,498.306,139.557,25.216,31.886,65.963,79.255,21.648,35.664,133.901,108.708,369.628,182.042,501.91,139.037,25.168,32.346,65.98,79.251,21.649,35.766,160.042,130.303,369.499,181.969,501.734,138.69,18.53,42.87,120.71,64.09,76.14,70.4,25.81,6.07,-5.69,1.99,-3.03,-2.02,8.02,29.93,55.42,83.91,70.4,81.99,53.48,29.48,15.3,5.78,55.35,38.62,21.87,10.87,5.78,56718.1,55002,20170405,42.06643595,-91.76964687,61.07,281.982,98.416,282.373,601792.553,4657872.433,312.898,19.406,-5.846,-10.0,70.4,70.4,76.1,83.45,73.13,63.18,54.69,48.1,42.31,37.21,32.73,27.9,22.15,17.58,13.95,11.08,8.79,-99999.0,-99999.0,-99999.0,-99999.0
10010,601789.351,4657885.423,3886.2,282.293,250.879,61.372,86.186,224.653,53712.548,-5.745,53717.181,53954.611,-228.355,0.0013082,6.66e-05,0.000142,24.634,32.49,69.054,80.497,23.44,32.772,139.622,107.601,371.105,180.963,497.343,139.39,25.281,31.567,65.627,79.095,21.577,35.647,133.604,108.979,369.042,182.568,501.634,139.692,25.233,32.027,65.644,79.092,21.577,35.748,159.685,130.628,368.913,182.494,501.458,139.345,18.22,43.18,121.31,64.65,76.83,71.14,26.54,6.09,-5.71,1.94,-3.02,-2.0,7.63,30.11,55.89,84.52,71.14,81.72,53.68,29.61,15.37,5.81,54.89,38.76,21.96,10.91,5.81,56718.2,55002,20170405,42.06644097,-91.76965072,61.45,289.307,98.405,282.293,601792.159,4657872.891,312.808,19.652,-6.18,-10.412,71.14,71.14,76.72,83.96,73.88,63.89,55.33,48.66,42.79,37.63,33.1,28.23,22.1,17.3,13.54,10.6,8.3,-99999.0,-99999.0,-99999.0,-99999.0
10010,601789.024,4657885.976,3886.3,282.213,251.175,61.402,86.128,224.625,53712.508,-5.744,53717.144,53954.615,-228.397,0.0009646,3.25e-05,0.0001423,24.58,32.695,68.561,80.296,22.363,33.023,138.817,107.696,371.263,180.777,497.063,138.758,25.316,31.319,65.287,78.95,21.447,35.57,133.274,109.392,368.459,183.124,501.346,140.303,25.268,31.779,65.304,78.946,21.447,35.672,159.29,131.124,368.331,183.05,501.169,139.956,18.01,43.51,122.27,65.38,77.54,71.84,27.1,6.1,-5.72,1.86,-3.01,-1.97,7.33,30.23,56.62,85.24,71.84,81.57,53.91,29.76,15.44,5.84,54.56,38.91,22.09,10.97,5.84,56718.3,55002,20170405,42.066446,-91.76965458,60.88,284.119,98.402,282.213,601791.765,4657873.349,312.719,19.821,-6.503,-10.81,71.84,71.84,77.37,84.58,74.83,64.87,56.26,49.41,43.4,38.11,33.47,28.6,22.14,17.13,13.26,10.26,7.95,-99999.0,-99999.0,-99999.0,-99999.0
10010,601788.697,4657886.529,3886.4,282.133,251.175,61.398,86.069,224.606,53712.44,-5.744,53717.164,53954.619,-228.383,0.0010742,4.15e-05,0.0001862,24.621,32.995,68.238,80.094,21.634,33.53,137.533,108.108,371.187,180.474,497.626,137.532,25.3,31.154,64.951,78.817,21.256,35.45,132.91,109.921,367.958,183.739,501.12,140.821,25.251,31.614,64.968,78.813,21.256,35.551,158.853,131.76,367.83,183.666,500.943,140.474,17.91,43.85,123.67,66.26,78.27,72.43,27.46,6.12,-5.75,1.75,-3.0,-1.94,7.16,30.3,57.58,86.15,72.43,81.58,54.17,29.93,15.51,5.86,54.43,39.06,22.23,11.02,5.86,56718.4,55002,20170405,42.06645102,-91.76965843,57.96,282.974,98.402,282.133,601791.371,4657873.807,312.629,19.915,-6.814,-11.195,72.43,72.43,78.03,85.37,75.99,66.09,57.48,50.35,44.1,38.63,33.84,29.01,22.3,17.14,13.17,10.12,7.78,-99999.0,-99999.0,-99999.0,-99999.0
10010,601788.37,4657887.083,3886.5,282.054,250.879,61.361,86.009,224.599,53712.356,-5.743,53717.195,53954.623,-228.358,0.0015678,3.89e-05,0.0001841,24.768,33.294,67.995,79.937,21.456,34.273,136.166,108.35,371.065,180.302,499.469,136.151,25.211,31.041,64.643,78.683,21.024,35.304,132.491,110.504,367.615,184.445,501.068,141.265,25.163,31.501,64.66,78.679,21.025,35.405,158.351,132.458,367.487,184.371,500.892,140.918,17.95,44.16,125.41,67.25,78.98,72.89,27.64,6.15,-5.78,1.63,-2.99,-1.89,7.12,30.28,58.74,87.24,72.89,81.75,54.43,30.12,15.57,5.88,54.49,39.19,22.4,11.07,5.88,56718.5,55002,20170405,42.06645605,-91.76966229,53.24,282.288,98.405,282.054,601790.977,4657874.265,312.54,19.937,-7.114,-11.566,72.89,72.89,78.68,86.33,77.34,67.51,58.93,51.42,44.87,39.16,34.17,29.38,22.54,17.3,13.27,10.19,7.82,-99999.0,-99999.0,-99999.0,-99999.0
10010,601788.043,4657887.636,3886.6,281.974,251.47,61.296,85.944,224.603,53712.276,-5.742,53717.198,53954.627,-228.36,0.0012301,4.1e-05,0.000185,24.917,33.436,67.627,79.855,21.56,35.017,135.113,108.364,371.043,180.304,502.313,135.543,25.035,30.926,64.382,78.539,20.79,35.157,131.957,111.079,367.523,185.233,501.323,141.711,24.987,31.385,64.399,78.535,20.79,35.258,157.709,133.15,367.394,185.159,501.146,141.364,18.11,44.4,127.22,68.39,79.63,73.24,27.71,6.22,-5.81,1.51,-2.97,-1.83,7.22,30.11,60.16,88.33,73.24,82.04,54.68,30.32,15.62,5.89,54.72,39.3,22.59,11.11,5.89,56718.6,55002,20170405,42.06646108,-91.76966614,61.43,279.694,98.399,281.974,601790.583,4657874.723,312.45,19.894,-7.402,-11.926,73.24,73.24,79.27,87.28,78.78,69.14,60.67,52.68,45.7,39.65,34.4,29.62,22.82,17.58,13.54,10.43,8.03,-99999.0,-99999.0,-99999.0,-99999.0
10010,601787.716,4657888.19,3886.7,281.894,250.879,61.206,85.872,224.613,53712.212,-5.742,53717.166,53954.632,-228.398,0.0011755,6.05e-05,0.0002462,24.972,33.336,67.064,79.812,21.667,35.512,134.578,108.334,370.994,180.399,504.731,135.955,24.759,30.767,64.172,78.385,20.591,35.034,131.226,111.609,367.775,186.044,501.971,142.246,24.711,31.226,64.189,78.381,20.591,35.135,156.833,133.785,367.646,185.97,501.794,141.899,18.38,44.56,128.79,69.71,80.11,73.52,27.75,6.32,-5.82,1.4,-2.95,-1.79,7.45,29.78,62.02,89.11,73.52,82.45,54.93,30.54,15.66,5.91,55.13,39.37,22.81,11.15,5.91,56718.7,55002,20170405,42.0664661,-91.76967,61.36,282.669,98.405,281.894,601790.189,4657875.181,312.361,19.792,-7.678,-12.274,73.52,73.52,79.7,87.96,80.17,70.99,62.85,54.24,46.66,40.15,34.54,29.68,23.07,17.93,13.94,10.84,8.42,-99999.0,-99999.0,-99999.0,-99999.0
10010,601787.389,4657888.743,3886.8,281.815,249.697,61.096,85.792,224.624,53712.168,-5.741,53717.137,53954.636,-228.433,0.0013778,4.24e-05,0.0001576,24.972,32.984,66.485,79.703,21.747,35.708,134.34,108.406,370.741,180.632,505.474,136.716,24.381,30.549,63.987,78.233,20.453,34.952,130.272,112.068,368.412,186.793,503.002,142.93,24.332,31.009,64.004,78.229,20.453,35.053,155.688,134.336,368.283,186.719,502.825,142.584,18.76,44.7,129.92,71.27,80.34,73.81,27.76,6.43,-5.81,1.28,-2.93,-1.76,7.79,29.31,64.43,89.26,73.81,82.98,55.2,30.78,15.68,5.92,55.69,39.43,23.06,11.16,5.92,56718.8,55002,20170405,42.06647113,-91.76967385,61.05,281.601,98.419,281.815,601789.795,4657875.639,312.271,19.643,-7.937,-12.614,73.81,73.81,79.91,88.08,81.32,73.0,65.53,56.23,47.86,40.73,34.67,29.5,23.32,18.37,14.47,11.4,8.98,-99999.0,-99999.0,-99999.0,-99999.0
10010,601787.062,4657889.297,3886.9,281.735,251.175,60.975,85.707,224.631,53712.124,-5.74,53717.156,53954.64,-228.419,0.0016859,0.0001026,0.0003716,25.063,32.382,66.115,79.463,21.838,35.741,134.138,108.555,370.334,181.211,504.682,137.542,23.927,30.276,63.791,78.097,20.378,34.913,129.165,112.457,369.383,187.431,504.314,143.77,23.879,30.736,63.808,78.093,20.378,35.014,154.358,134.803,369.255,187.357,504.137,143.423,19.22,44.87,130.56,72.98,80.31,74.14,27.77,6.53,-5.77,1.16,-2.9,-1.74,8.22,28.84,67.35,88.68,74.14,83.62,55.5,31.02,15.69,5.93,56.38,39.51,23.33,11.16,5.93,56718.9,55002,20170405,42.06647615,-91.76967771,59.98,280.991,98.402,281.735,601789.4,4657876.097,312.182,19.455,-8.178,-12.947,74.14,74.14,79.89,87.56,82.08,75.03,68.59,58.67,49.34,41.49,34.89,29.34,23.59,18.87,15.1,12.08,9.66,-99999.0,-99999.0,-99999.0,-99999.0
10010,601786.736,4657889.85,3887.0,281.655,250.288,60.852,85.618,224.63,53712.068,-5.74,53717.232,53954.644,-228.349,0.001123,5.96e-05,9.42e-05,25.353,31.64,65.961,79.173,21.886,35.747,133.974,108.644,369.882,182.127,503.269,138.831,23.452,29.963,63.552,77.984,20.349,34.913,128.049,112.786,370.561,187.99,505.749,144.711,23.404,30.422,63.569,77.98,20.349,35.014,153.02,135.198,370.432,187.917,505.573,144.364,19.71,45.11,130.86,74.68,80.11,74.53,27.8,6.58,-5.73,1.05,-2.88,-1.75,8.66,28.48,70.41,87.63,74.53,84.31,55.82,31.24,15.7,5.95,57.09,39.61,23.6,11.15,5.95,56719.0,55002,20170405,42.06648118,-91.76968156,59.02,283.737,98.412,281.655,601789.006,4657876.555,312.092,19.241,-8.397,-13.275,74.53,74.53,79.72,86.62,82.48,76.87,71.65,61.31,51.0,42.42,35.28,29.35,23.91,19.41,15.75,12.78,10.37,8.66,-99999.0,-99999.0,-99999.0
10010,601786.298,4657890.27,3887.1,281.574,249.992,60.734,85.529,224.614,53712.0,-5.739,53717.327,53954.648,-228.26,0.0011353,5.79e-05,0.0001014,25.761,31.061,65.807,78.981,21.827,35.753,133.801,108.648,369.26,182.94,501.884,140.421,23.015,29.638,63.263,77.893,20.343,34.943,127.094,113.055,371.765,188.584,507.147,145.652,22.966,30.097,63.28,77.889,20.343,35.044,151.874,135.52,371.636,188.511,506.97,145.306,20.15,45.43,131.03,76.16,79.93,74.92,27.9,6.59,-5.71,0.95,-2.87,-1.76,9.03,28.32,73.14,86.6,74.92,84.97,56.14,31.43,15.7,5.96,57.72,39.75,23.84,11.13,5.96,56719.1,55002,20170405,42.06648502,-91.76968678,58.12,277.405,98.416,281.574,601788.581,4657876.982,312.018,19.012,-8.595,-13.601,74.92,74.92,79.56,85.7,82.69,78.37,74.27,63.78,52.64,43.44,35.85,29.59,24.31,19.93,16.35,13.41,11.0,9.03,-99999.0,-99999.0,-99999.0
10010,601785.86,4657890.69,3887.2,281.492,249.992,60.628,85.441,224.585,53711.912,-5.739,53717.395,53954.652,-228.198,0.0013284,6.81e-05,0.0002521,26.044,30.887,65.434,78.921,21.67,35.712,133.412,108.859,368.322,183.253,500.83,141.374,22.659,29.335,62.933,77.823,20.347,34.995,126.44,113.247,372.81,189.337,508.393,146.483,22.611,29.795,62.95,77.819,20.347,35.096,151.089,135.751,372.681,189.264,508.217,146.136,20.49,45.84,131.18,77.2,79.95,75.26,28.05,6.55,-5.72,0.88,-2.88,-1.78,9.28,28.44,74.97,86.15,75.26,85.53,56.43,31.58,15.71,5.97,58.21,39.93,24.0,11.13,5.97,56719.2,55002,20170405,42.06648886,-91.769692,57.49,280.838,98.416,281.492,601788.155,4657877.409,311.943,18.778,-8.772,-13.928,75.26,75.26,79.59,85.31,82.97,79.41,76.01,65.59,53.97,44.41,36.54,30.07,24.79,20.45,16.87,13.92,11.48,9.47,-99999.0,-99999.0,-99999.0
10010,601785.422,4657891.11,3887.3,281.41,247.923,60.536,85.355,224.545,53711.804,-5.738,53717.414,53954.656,-228.185,0.0009984,3.48e-05,9.41e-05,26.022,31.029,64.874,78.876,21.429,35.572,132.835,109.614,367.268,183.312,500.26,141.243,22.405,29.083,62.586,77.769,20.36,35.063,126.156,113.357,373.57,190.302,509.448,147.123,22.356,29.543,62.604,77.765,20.361,35.164,150.749,135.883,373.442,190.229,509.272,146.776,20.72,46.28,131.28,77.68,80.27,75.49,28.23,6.49,-5.74,0.87,-2.93,-1.79,9.4,28.81,75.57,86.61,75.49,85.96,56.66,31.66,15.74,5.98,58.53,40.12,24.07,11.16,5.98,56719.3,55002,20170405,42.0664927,-91.76969722,60.54,277.328,98.439,281.41,601787.73,4657877.836,311.869,18.552,-8.93,-14.258,75.49,75.49,79.88,85.71,83.51,80.01,76.66,66.44,54.78,45.17,37.25,30.71,25.36,20.94,17.3,14.29,11.8,9.75,-99999.0,-99999.0,-99999.0
10010,601784.984,4657891.53,3887.4,281.329,249.105,60.457,85.274,224.498,53711.672,-5.737,53717.401,53954.661,-228.203,0.0010556,6.75e-05,0.0002492,25.725,31.2,64.386,78.745,21.059,35.325,132.395,110.743,366.476,183.802,500.115,140.736,22.247,28.896,62.249,77.728,20.399,35.137,126.217,113.405,374.029,191.427,510.323,147.534,22.199,29.356,62.266,77.724,20.4,35.238,150.822,135.94,373.901,191.353,510.146,147.188,20.83,46.72,131.13,77.65,80.87,75.56,28.42,6.42,-5.75,0.89,-2.99,-1.8,9.4,29.38,75.05,87.96,75.56,86.26,56.82,31.69,15.78,5.99,58.69,40.31,24.07,11.2,5.99,56719.4,55002,20170405,42.06649654,-91.76970244,60.42,279.16,98.426,281.329,601787.305,4657878.263,311.794,18.341,-9.074,-14.593,75.56,75.56,80.42,86.91,84.33,80.23,76.33,66.33,55.04,45.67,37.9,31.45,25.98,21.41,17.64,14.54,11.98,9.87,-99999.0,-99999.0,-99999.0
10010,601784.546,4657891.95,3887.5,281.247,248.809,60.39,85.199,224.446,53711.536,-5.737,53717.389,53954.665,-228.222,0.0010921,3.7e-06,0.0001531,25.326,31.224,64.17,78.556,20.591,35.026,132.202,111.605,366.131,185.019,500.222,140.871,22.163,28.775,61.948,77.696,20.481,35.206,126.525,113.428,374.263,192.593,511.036,147.733,22.114,29.235,61.965,77.692,20.482,35.307,151.192,135.967,374.134,192.52,510.859,147.387,20.88,47.13,130.53,77.27,81.61,75.48,28.58,6.35,-5.7,0.95,-3.06,-1.79,9.34,30.05,73.8,89.91,75.48,86.46,56.92,31.69,15.82,5.98,58.76,40.49,24.01,11.25,5.98,56719.5,55002,20170405,42.06650038,-91.76970766,60.01,278.625,98.429,281.247,601786.879,4657878.691,311.72,18.155,-9.204,-14.935,75.48,75.48,81.07,88.61,85.35,80.2,75.36,65.58,54.89,45.93,38.44,32.17,26.6,21.83,17.91,14.7,12.06,9.9,-99999.0,-99999.0,-99999.0
10010,601784.108,4657892.37,3887.6,281.165,247.627,60.338,85.13,224.389,53711.436,-5.736,53717.404,53954.669,-228.212,0.0009794,8.18e-05,0.0001084,24.937,31.077,64.154,78.377,20.219,34.782,131.911,111.831,366.234,186.467,500.675,141.822,22.115,28.712,61.704,77.673,20.607,35.261,126.971,113.45,374.369,193.672,511.586,147.789,22.066,29.172,61.721,77.669,20.607,35.363,151.727,135.994,374.241,193.599,511.409,147.443,20.91,47.46,129.43,76.71,82.36,75.33,28.67,6.3,-5.58,1.01,-3.12,-1.78,9.29,30.7,72.27,91.64,75.33,86.61,56.97,31.65,15.87,5.99,58.8,40.63,23.92,11.3,5.98,56719.6,55002,20170405,42.06650421,-91.76971288,60.23,280.228,98.443,281.165,601786.454,4657879.118,311.646,17.999,-9.323,-15.287,75.33,75.33,81.57,90.07,86.12,79.88,74.09,64.53,54.49,46.01,38.85,32.81,27.16,22.2,18.15,14.84,12.13,9.91,-99999.0,-99999.0,-99999.0
10010,601783.67,4657892.791,3887.7,281.083,249.992,60.301,85.064,224.327,53711.4,-5.735,53717.439,53954.673,-228.183,0.0007328,3.36e-05,0.0001882,24.526,30.76,64.114,78.208,20.113,34.681,131.085,111.792,366.911,187.429,501.918,142.892,22.058,28.697,61.523,77.656,20.761,35.298,127.484,113.501,374.415,194.56,511.964,147.788,22.01,29.157,61.54,77.652,20.762,35.4,152.343,136.055,374.286,194.487,511.787,147.442,21.0,47.71,128.0,76.1,83.01,75.18,28.63,6.25,-5.41,1.06,-3.18,-1.77,9.31,31.27,70.75,92.36,75.18,86.81,56.98,31.61,15.93,6.01,58.92,40.74,23.83,11.35,5.97,56719.7,55002,20170405,42.06650805,-91.7697181,60.25,281.372,98.416,281.083,601786.028,4657879.545,311.571,17.878,-9.43,-15.65,75.18,75.18,81.67,90.59,86.18,79.16,72.71,63.43,54.0,45.98,39.14,33.32,27.66,22.57,18.43,15.04,12.28,10.02,-99999.0,-99999.0,-99999.0
10010,601783.232,4657893.211,3887.8,281.002,247.627,60.279,85.0,224.258,53711.42,-5.735,53717.479,53954.677,-228.15,0.001125,2.9e-05,0.0002934,24.022,30.323,63.926,78.037,20.218,34.718,129.519,112.2,368.427,187.745,504.072,143.584,21.95,28.726,61.389,77.643,20.918,35.319,128.035,113.646,374.43,195.215,512.187,147.777,21.902,29.186,61.406,77.639,20.918,35.42,153.004,136.23,374.302,195.142,512.01,147.431,21.21,47.89,126.51,75.54,83.49,75.09,28.41,6.22,-5.23,1.09,-3.22,-1.76,9.49,31.74,69.45,92.89,75.09,87.13,56.97,31.56,15.98,6.03,59.22,40.82,23.74,11.38,5.97,56719.8,55002,20170405,42.06651189,-91.76972332,60.3,275.345,98.443,281.002,601785.603,4657879.972,311.497,17.793,-9.526,-16.026,75.09,75.09,81.75,90.97,86.17,78.5,71.51,62.47,53.55,45.9,39.35,33.73,28.11,23.01,18.84,15.42,12.62,10.33,-99999.0,-99999.0,-99999.0
10010,601782.794,4657893.631,3887.9,280.92,249.401,60.27,84.936,224.182,53711.452,-5.734,53717.514,53954.681,-228.12,0.0011409,3.83e-05,0.0002156,23.423,29.918,63.631,77.911,20.345,34.814,127.347,113.312,370.632,187.832,506.387,144.289,21.761,28.802,61.267,77.628,21.046,35.331,128.604,113.965,374.433,195.67,512.306,147.765,21.713,29.261,61.284,77.624,21.046,35.432,153.686,136.613,374.304,195.596,512.129,147.418,21.61,48.06,125.29,75.13,83.83,75.03,27.95,6.19,-5.08,1.06,-3.25,-1.76,9.86,32.13,68.53,93.27,75.03,87.66,56.98,31.53,16.01,6.04,59.78,40.89,23.68,11.4,5.97,56719.9,55002,20170405,42.06651573,-91.76972854,60.33,275.497,98.422,280.92,601785.177,4657880.399,311.422,17.745,-9.608,-16.416,75.03,75.03,81.81,91.24,86.16,78.02,70.64,61.8,53.25,45.89,39.54,34.08,28.6,23.59,19.46,16.05,13.24,10.93,-99999.0,-99999.0,-99999.0
10010,601782.356,4657894.051,3888.0,280.838,249.992,60.274,84.872,224.099,53711.456,-5.733,53717.545,53954.685,-228.095,0.0007944,6.64e-05,0.0003099,22.8,29.622,63.312,77.863,20.382,34.89,125.182,114.54,372.643,188.119,507.931,145.63,21.485,28.924,61.12,77.605,21.122,35.34,129.163,114.49,374.439,196.001,512.381,147.746,21.437,29.384,61.137,77.601,21.122,35.441,154.357,137.242,374.31,195.927,512.204,147.399,22.22,48.26,124.58,74.94,84.08,74.99,27.23,6.14,-4.99,0.97,-3.28,-1.76,10.46,32.48,68.04,93.55,74.99,88.44,57.02,31.52,16.03,6.05,60.62,40.97,23.65,11.42,5.96,56720.0,55002,20170405,42.06651957,-91.76973376,60.26,278.549,98.416,280.838,601784.752,4657880.826,311.348,17.732,-9.675,-16.821,74.99,74.99,81.85,91.43,86.22,77.79,70.19,61.5,53.2,46.02,39.81,34.44,29.17,24.36,20.34,16.98,14.18,11.84,-99999.0,-99999.0,-99999.0
10010,601781.79,4657894.316,3888.1,280.775,248.809,60.289,84.805,224.028,53711.424,-5.733,53717.581,53954.689,-228.065,0.0008749,4.53e-05,5.94e-05,22.294,29.305,62.978,77.84,20.354,34.935,123.894,114.969,373.681,188.758,508.667,147.383,21.146,29.086,60.925,77.573,21.142,35.359,129.688,115.175,374.471,196.275,512.472,147.717,21.098,29.546,60.942,77.569,21.143,35.46,154.987,138.065,374.342,196.202,512.295,147.371,23.01,48.52,124.45,74.95,84.27,74.92,26.31,6.08,-5.0,0.82,-3.31,-1.77,11.23,32.83,67.92,93.76,74.92,89.43,57.12,31.53,16.05,6.06,61.68,41.08,23.65,11.43,5.96,56720.1,55002,20170405,42.06652203,-91.76974055,60.12,279.617,98.429,280.775,601784.294,4657881.228,311.284,17.748,-9.726,-17.241,74.92,74.92,81.86,91.58,86.35,77.81,70.12,61.54,53.39,46.32,40.18,34.86,29.83,25.27,21.41,18.13,15.36,13.01,11.23,-99999.0,-99999.0
10010,601781.225,4657894.581,3888.2,280.711,251.47,60.314,84.735,223.948,53711.396,-5.732,53717.628,53954.692,-228.023,0.001212,5.06e-05,0.0001342,22.065,28.902,62.601,77.755,20.329,35.02,123.866,114.37,373.984,189.801,509.32,148.601,20.794,29.265,60.679,77.535,21.123,35.416,130.149,115.917,374.565,196.525,512.635,147.683,20.745,29.725,60.696,77.531,21.123,35.517,155.541,138.955,374.437,196.451,512.458,147.337,23.87,48.86,124.83,75.09,84.4,74.83,25.3,5.98,-5.11,0.65,-3.34,-1.79,12.08,33.22,68.06,93.91,74.83,90.52,57.26,31.55,16.06,6.06,62.82,41.23,23.67,11.44,5.96,56720.2,55002,20170405,42.06652449,-91.76974733,60.11,281.448,98.399,280.711,601783.835,4657881.63,311.22,17.79,-9.761,-17.677,74.83,74.83,81.83,91.67,86.53,77.99,70.29,61.82,53.77,46.77,40.68,35.38,30.56,26.25,22.55,19.37,16.63,14.29,12.27,-99999.0,-99999.0
10010,601780.659,4657894.846,3888.3,280.647,249.992,60.35,84.662,223.854,53711.416,-5.731,53717.679,53954.696,-227.978,0.0009573,4.95e-05,0.0002022,22.127,28.61,62.197,77.615,20.331,35.201,124.725,113.47,374.293,191.268,510.361,148.761,20.481,29.434,60.393,77.495,21.09,35.54,130.499,116.595,374.76,196.751,512.921,147.662,20.432,29.894,60.41,77.491,21.09,35.641,155.961,139.768,374.631,196.677,512.744,147.316,24.67,49.26,125.58,75.3,84.47,74.7,24.36,5.86,-5.33,0.47,-3.39,-1.82,12.85,33.67,68.37,93.98,74.7,91.54,57.43,31.59,16.07,6.06,63.87,41.4,23.7,11.44,5.95,56720.3,55002,20170405,42.06652695,-91.76975412,60.25,277.557,98.416,280.647,601783.377,4657882.032,311.156,17.85,-9.778,-18.129,74.7,74.7,81.77,91.71,86.7,78.25,70.63,62.26,54.29,47.34,41.27,35.99,31.31,27.19,23.61,20.5,17.8,15.46,13.42,-99999.0,-99999.0
10010,601780.094,4657895.111,3888.4,280.583,251.47,60.395,84.582,223.745,53711.492,-5.731,53717.723,53954.699,-227.94,0.0009387,5.22e-05,0.0003457,22.247,28.601,61.822,77.527,20.35,35.425,125.876,113.059,374.8,192.93,511.513,148.299,20.237,29.569,60.083,77.462,21.058,35.757,130.704,117.118,375.091,196.958,513.367,147.684,20.189,30.028,60.1,77.458,21.058,35.858,156.207,140.396,374.963,196.884,513.19,147.337,25.32,49.71,126.64,75.54,84.44,74.56,23.57,5.71,-5.68,0.3,-3.46,-1.88,13.45,34.17,68.79,93.95,74.56,92.4,57.63,31.62,16.06,6.06,64.7,41.58,23.74,11.44,5.95,56720.4,55002,20170405,42.06652941,-91.7697609,57.13,279.617,98.399,280.583,601782.919,4657882.434,311.092,17.919,-9.776,-18.594,74.56,74.56,81.66,91.67,86.83,78.55,71.06,62.81,54.9,47.99,41.95,36.67,32.06,28.03,24.52,21.44,18.75,16.4,14.34,-99999.0,-99999.0
10010,601779.529,4657895.376,3888.5,280.519,249.992,60.445,84.497,223.623,53711.588,-5.73,53717.754,53954.703,-227.914,0.0015502,2.71e-05,0.0001746,22.201,28.712,61.534,77.551,20.414,35.548,126.94,113.173,375.168,194.292,512.222,147.916,20.057,29.657,59.759,77.442,21.027,36.07,130.763,117.455,375.583,197.174,514.0,147.77,20.009,30.116,59.776,77.438,21.027,36.171,156.277,140.801,375.454,197.101,513.823,147.424,25.79,50.19,128.0,75.79,84.34,74.4,23.0,5.53,-6.15,0.16,-3.54,-1.95,13.84,34.71,69.28,93.84,74.4,93.08,57.83,31.65,16.05,6.06,65.3,41.79,23.78,11.44,5.94,56720.5,55002,20170405,42.06653187,-91.76976769,60.43,278.397,98.416,280.519,601782.461,4657882.836,311.028,17.989,-9.754,-19.074,74.4,74.4,81.53,91.57,86.9,78.84,71.53,63.41,55.57,48.7,42.68,37.41,32.8,28.79,25.27,22.18,19.47,17.09,15.0,-99999.0,-99999.0
10010,601778.963,4657895.641,3888.6,280.456,249.105,60.494,84.404,223.493,53711.656,-5.73,53717.774,53954.706,-227.901,0.000988,1.47e-05,0.0001114,22.081,28.678,61.375,77.623,20.65,35.482,127.745,113.38,375.197,195.034,512.421,147.809,19.913,29.701,59.433,77.443,20.999,36.457,130.712,117.655,376.233,197.469,514.832,147.92,19.865,30.161,59.45,77.439,20.999,36.558,156.216,141.04,376.104,197.396,514.655,147.574,26.16,50.7,129.58,76.04,84.21,74.24,22.57,5.33,-6.71,0.03,-3.63,-2.05,14.1,35.3,69.79,93.69,74.24,93.64,58.05,31.67,16.04,6.05,65.76,42.0,23.82,11.43,5.93,56720.6,55002,20170405,42.06653433,-91.76977448,60.5,272.446,98.426,280.456,601782.002,4657883.238,310.964,18.05,-9.708,-19.566,74.24,74.24,81.39,91.44,86.96,79.14,72.03,64.04,56.28,49.45,43.46,38.19,33.56,29.5,25.93,22.8,20.04,17.62,15.48,-99999.0,-99999.0
10010,601778.398,4657895.906,3888.7,280.392,247.923,60.539,84.308,223.363,53711.676,-5.729,53717.789,53954.71,-227.891,0.001118,1.07e-05,0.0001376,22.085,28.518,61.34,77.676,21.189,35.313,128.229,113.431,374.938,195.42,512.553,147.757,19.783,29.711,59.116,77.463,20.973,36.87,130.61,117.834,377.021,197.962,515.885,148.154,19.735,30.17,59.133,77.459,20.973,36.971,156.094,141.255,376.892,197.888,515.708,147.808,26.46,51.22,131.22,76.33,84.15,74.07,22.24,5.11,-7.3,-0.09,-3.74,-2.15,14.28,35.87,70.34,93.62,74.07,94.15,58.27,31.71,16.04,6.05,66.15,42.21,23.86,11.42,5.93,56720.7,55002,20170405,42.06653679,-91.76978126,60.96,276.26,98.439,280.392,601781.544,4657883.64,310.9,18.095,-9.636,-20.068,74.07,74.07,81.26,91.37,87.09,79.5,72.56,64.71,57.0,50.22,44.24,38.97,34.31,30.18,26.55,23.35,20.54,18.06,15.89,14.28,-99999.0
10010,601777.833,4657896.171,3888.8,280.328,248.809,60.572,84.21,223.241,53711.664,-5.728,53717.808,53954.713,-227.878,0.0015475,2.19e-05,9.99e-05,22.076,28.484,61.352,77.719,21.916,35.235,128.481,113.454,374.433,196.066,512.751,147.629,19.66,29.693,58.827,77.499,20.943,37.252,130.495,118.1,377.946,198.776,517.211,148.529,19.611,30.153,58.844,77.495,20.943,37.353,155.956,141.574,377.817,198.703,517.034,148.183,26.73,51.71,132.79,76.73,84.25,73.94,21.99,4.91,-7.83,-0.23,-3.87,-2.25,14.44,36.37,70.93,93.74,73.94,94.6,58.49,31.77,16.05,6.06,66.48,42.41,23.93,11.43,5.92,56720.8,55002,20170405,42.06653925,-91.76978805,61.08,274.734,98.429,280.328,601781.086,4657884.042,310.837,18.113,-9.538,-20.579,73.94,73.94,81.2,91.44,87.4,79.98,73.19,65.43,57.74,50.96,44.97,39.69,34.99,30.79,27.09,23.84,20.98,18.46,16.24,14.44,-99999.0
10010,601777.267,4657896.436,3888.9,280.264,249.401,60.586,84.114,223.136,53711.652,-5.727,53717.827,53954.717,-227.864,0.001509,5.06e-05,0.0001121,21.752,28.702,61.297,77.752,22.445,35.311,128.822,113.798,373.773,197.146,512.465,147.513,19.552,29.655,58.586,77.548,20.899,37.563,130.387,118.478,379.067,199.957,518.879,149.082,19.504,30.114,58.603,77.544,20.899,37.664,155.827,142.028,378.938,199.884,518.702,148.735,26.95,52.14,134.26,77.22,84.53,73.85,21.82,4.74,-8.27,-0.38,-4.01,-2.35,14.55,36.73,71.58,94.05,73.85,94.98,58.71,31.85,16.07,6.06,66.75,42.59,24.0,11.45,5.92,56720.9,55002,20170405,42.06654171,-91.76979483,61.07,270.996,98.422,280.264,601780.628,4657884.444,310.773,18.099,-9.412,-21.098,73.85,73.85,81.22,91.64,87.87,80.59,73.91,66.2,58.47,51.64,45.61,40.28,35.55,31.29,27.54,24.24,21.33,18.78,16.53,14.55,-99999.0
10010,601776.702,4657896.701,3889.0,280.2,248.219,60.572,84.022,223.053,53711.668,-5.727,53717.835,53954.72,-227.862,0.0011162,1.89e-05,0.0001744,21.149,29.055,61.085,77.716,22.428,35.391,129.633,114.796,373.272,198.03,511.468,147.527,19.478,29.605,58.408,77.618,20.832,37.788,130.305,118.926,380.486,201.425,520.942,149.806,19.43,30.064,58.425,77.614,20.833,37.889,155.728,142.566,380.357,201.351,520.765,149.46,27.08,52.49,135.68,77.75,84.85,73.78,21.77,4.6,-8.63,-0.53,-4.15,-2.45,14.59,36.97,72.26,94.4,73.78,95.23,58.9,31.94,16.1,6.08,66.91,42.73,24.09,11.47,5.92,56721.0,55002,20170405,42.06654417,-91.76980162,52.98,275.803,98.436,280.2,601780.169,4657884.846,310.709,18.044,-9.261,-21.621,73.78,73.78,81.25,91.88,88.39,81.24,74.67,66.97,59.14,52.23,46.13,40.74,35.95,31.63,27.83,24.49,21.55,18.96,16.68,14.68,-99999.0
10010,601776.023,4657896.857,3889.1,280.111,248.514,60.52,83.934,222.968,53711.704,-5.726,53717.822,53954.724,-227.882,0.0011523,2.07e-05,0.0001801,20.587,29.357,60.729,77.583,21.845,35.337,130.847,116.32,373.304,197.973,510.685,147.735,19.46,29.554,58.294,77.72,20.744,37.938,130.266,119.394,382.27,203.018,523.413,150.652,19.411,30.014,58.311,77.716,20.744,38.04,155.682,143.127,382.142,202.945,523.235,150.306,27.07,52.76,137.08,78.24,85.06,73.68,21.84,4.5,-8.9,-0.65,-4.28,-2.54,14.5,37.12,72.95,94.64,73.68,95.32,59.06,32.02,16.12,6.08,66.91,42.84,24.16,11.48,5.91,56721.1,55002,20170405,42.06654566,-91.7698098,51.05,277.176,98.433,280.111,601779.656,4657885.191,310.671,17.945,-9.089,-22.149,73.68,73.68,81.24,92.03,88.82,81.84,75.41,67.72,59.77,52.75,46.55,41.08,36.22,31.82,27.95,24.56,21.57,18.95,16.65,14.62,-99999.0
10010,601775.343,4657897.014,3889.2,280.021,247.627,60.424,83.844,222.902,53711.744,-5.725,53717.793,53954.728,-227.917,0.0015603,7.29e-05,0.0002638,20.244,29.533,60.348,77.422,21.025,35.264,131.805,117.644,373.914,197.029,511.151,148.169,19.502,29.514,58.23,77.867,20.643,38.033,130.29,119.851,384.383,204.589,526.282,151.535,19.454,29.973,58.247,77.864,20.643,38.134,155.711,143.675,384.255,204.515,526.105,151.189,26.93,52.98,138.45,78.65,85.07,73.46,22.03,4.41,-9.11,-0.74,-4.39,-2.62,14.28,37.24,73.64,94.65,73.46,95.25,59.19,32.08,16.12,6.08,66.73,42.93,24.22,11.49,5.9,56721.2,55002,20170405,42.06654716,-91.76981798,60.62,278.549,98.443,280.021,601779.142,4657885.535,310.634,17.798,-8.898,-22.679,73.46,73.46,81.1,92.01,89.05,82.31,76.08,68.42,60.33,53.21,46.92,41.38,36.45,31.91,27.94,24.46,21.41,18.75,16.41,14.37,-99999.0
10010,601774.664,4657897.17,3889.3,279.931,248.219,60.28,83.749,222.848,53711.78,-5.725,53717.753,53954.732,-227.964,0.0009201,6.17e-05,0.0001317,20.08,29.668,60.057,77.323,20.437,35.423,131.941,118.12,374.722,196.047,512.588,148.629,19.594,29.493,58.199,78.062,20.54,38.091,130.383,120.279,386.692,206.084,529.541,152.348,19.546,29.952,58.216,78.058,20.54,38.192,155.822,144.189,386.563,206.011,529.364,152.002,26.7,53.18,139.72,78.94,84.92,73.05,22.29,4.32,-9.26,-0.81,-4.48,-2.69,13.95,37.39,74.24,94.49,73.05,95.07,59.3,32.11,16.11,6.08,66.44,43.01,24.27,11.48,5.89,56721.3,55002,20170405,42.06654865,-91.76982616,60.43,275.803,98.436,279.931,601778.629,4657885.88,310.597,17.602,-8.692,-23.211,73.05,73.05,80.78,91.84,89.11,82.64,76.64,69.02,60.84,53.63,47.27,41.67,36.67,31.95,27.84,24.25,21.13,18.41,16.04,13.97,-99999.0
10010,601773.985,4657897.326,3889.4,279.841,248.809,60.09,83.647,222.8,53711.812,-5.724,53717.716,53954.736,-228.007,0.0010811,8.14e-05,0.0001166,20.019,29.916,59.817,77.304,20.351,35.871,131.432,117.872,375.374,195.807,513.894,148.54,19.714,29.494,58.188,78.294,20.45,38.125,130.536,120.667,389.039,207.548,533.161,153.008,19.666,29.954,58.205,78.29,20.45,38.226,156.005,144.656,388.91,207.475,532.984,152.662,26.42,53.38,140.8,79.11,84.73,72.37,22.56,4.22,-9.37,-0.85,-4.56,-2.75,13.57,37.59,74.68,94.28,72.37,94.85,59.39,32.12,16.09,6.07,66.09,43.09,24.29,11.46,5.86,56721.4,55002,20170405,42.06655015,-91.76983434,46.64,274.506,98.429,279.841,601778.115,4657886.225,310.56,17.357,-8.471,-23.742,72.37,72.37,80.28,91.6,89.07,82.82,77.01,69.45,61.24,54.0,47.61,41.98,36.94,31.99,27.71,24.01,20.79,18.01,15.6,13.57,-99999.0
10010,601773.306,4657897.482,3889.5,279.752,247.627,59.861,83.537,222.756,53711.848,-5.723,53717.695,53954.74,-228.035,0.0011374,1.65e-05,0.0002687,19.994,30.278,59.501,77.327,20.65,36.435,130.896,117.502,375.968,196.349,514.706,147.475,19.84,29.517,58.199,78.544,20.38,38.135,130.738,121.019,391.326,209.049,537.067,153.5,19.792,29.976,58.216,78.54,20.38,38.236,156.248,145.077,391.197,208.975,536.889,153.154,26.15,53.56,141.59,79.18,84.6,71.46,22.79,4.13,-9.43,-0.88,-4.64,-2.81,13.22,37.8,74.9,94.13,71.46,94.62,59.46,32.12,16.08,6.07,65.76,43.16,24.31,11.45,5.82,56721.5,55002,20170405,42.06655164,-91.76984253,49.79,267.715,98.443,279.752,601777.602,4657886.569,310.522,17.065,-8.233,-24.273,71.46,71.46,79.63,91.38,89.02,82.9,77.2,69.7,61.5,54.27,47.89,42.26,37.2,32.04,27.59,23.76,20.47,17.63,15.18,13.22,-99999.0
10010,601772.627,4657897.638,3889.6,279.662,247.627,59.605,83.421,222.715,53711.896,-5.723,53717.683,53954.744,-228.054,0.0007938,3.89e-05,0.0002419,19.888,30.495,59.083,77.379,21.015,36.965,130.646,117.388,376.802,197.187,515.535,145.926,19.953,29.559,58.247,78.802,20.331,38.118,130.981,121.389,393.551,210.605,541.14,153.908,19.905,30.018,58.264,78.798,20.332,38.219,156.54,145.522,393.422,210.532,540.963,153.562,25.93,53.68,142.06,79.22,84.54,70.44,22.96,4.05,-9.42,-0.9,-4.72,-2.86,12.95,37.95,75.01,94.06,70.44,94.43,59.51,32.12,16.07,6.07,65.48,43.21,24.31,11.45,5.78,56721.6,55002,20170405,42.06655313,-91.76985071,53.88,271.225,98.443,279.662,601777.089,4657886.914,310.485,16.73,-7.978,-24.802,70.44,70.44,78.92,91.19,89.0,82.94,77.29,69.83,61.66,54.45,48.08,42.46,37.38,32.05,27.47,23.55,20.19,17.31,14.84,12.95,-99999.0
10010,601771.947,4657897.794,3889.7,279.572,249.401,59.342,83.302,222.679,53711.948,-5.722,53717.674,53954.748,-228.069,0.0008879,4.71e-05,0.000202,19.581,30.29,58.685,77.461,21.21,37.436,130.511,117.508,377.864,198.022,516.678,145.203,20.038,29.624,58.348,79.073,20.295,38.077,131.25,121.897,395.786,212.162,545.236,154.344,19.989,30.084,58.365,79.069,20.296,38.178,156.862,146.131,395.658,212.089,545.058,153.998,25.81,53.73,142.31,79.35,84.47,69.46,23.03,3.99,-9.37,-0.96,-4.79,-2.9,12.79,37.95,75.3,93.99,69.46,94.31,59.54,32.14,16.07,6.06,65.32,43.23,24.33,11.44,5.74,56721.7,55002,20170405,42.06655463,-91.76985889,56.04,271.606,98.422,279.572,601776.575,4657887.258,310.448,16.359,-7.703,-25.33,69.46,69.46,78.24,91.01,89.02,83.09,77.55,70.09,61.86,54.59,48.17,42.51,37.41,31.99,27.36,23.4,20.01,17.12,14.64,12.79,-99999.0
10010,601771.268,4657897.95,3889.8,279.482,248.809,59.089,83.187,222.652,53711.992,-5.721,53717.665,53954.752,-228.085,0.0011384,5.8e-05,0.0002138,19.122,29.734,58.421,77.55,21.202,37.791,130.226,117.825,378.856,199.118,518.039,146.261,20.09,29.727,58.508,79.377,20.261,38.022,131.518,122.672,398.115,213.624,549.207,154.882,20.042,30.186,58.525,79.373,20.261,38.123,157.185,147.061,397.986,213.551,549.029,154.536,25.78,53.7,142.5,79.73,84.29,68.63,22.98,3.94,-9.29,-1.07,-4.84,-2.94,12.78,37.73,76.1,93.78,68.63,94.28,59.58,32.18,16.05,6.06,65.29,43.22,24.39,11.43,5.71,56721.8,55002,20170405,42.06655612,-91.76986707,53.07,274.582,98.429,279.482,601776.062,4657887.603,310.41,15.956,-7.405,-25.856,68.63,68.63,77.63,90.76,89.11,83.52,78.28,70.79,62.29,54.81,48.22,42.43,37.24,31.86,27.26,23.32,19.95,17.07,14.6,12.78,-99999.0
10010,601770.589,4657898.107,3889.9,279.393,249.992,58.848,83.082,222.642,53712.024,-5.721,53717.661,53954.756,-228.096,0.0010433,2.59e-05,0.0001837,18.758,29.248,58.285,77.611,21.078,37.947,129.769,118.615,379.739,200.936,519.913,148.661,20.119,29.886,58.717,79.728,20.227,37.965,131.764,123.792,400.558,214.926,552.957,155.563,20.07,30.345,58.734,79.724,20.227,38.066,157.479,148.405,400.43,214.853,552.78,155.218,25.86,53.62,142.68,80.46,83.94,68.01,22.78,3.91,-9.19,-1.25,-4.87,-2.97,12.89,37.3,77.66,93.4,68.01,94.34,59.65,32.25,16.02,6.04,65.39,43.19,24.5,11.41,5.68,56721.9,55002,20170405,42.06655762,-91.76987525,53.05,276.947,98.416,279.393,601775.548,4657887.948,310.373,15.53,-7.087,-26.38,68.01,68.01,77.13,90.42,89.26,84.33,79.67,72.15,63.12,55.21,48.3,42.25,36.91,31.66,27.16,23.31,19.99,17.15,14.72,12.89,-99999.0
10010,601769.91,4657898.263,3890.0,279.303,249.105,58.616,82.993,222.657,53712.044,-5.72,53717.668,53954.76,-228.096,0.0007513,1.9e-05,0.0001752,18.714,29.164,58.221,77.646,20.899,37.961,129.367,120.155,381.069,203.344,522.746,150.94,20.137,30.114,58.952,80.126,20.197,37.917,131.97,125.231,403.045,216.081,556.502,156.396,20.089,30.573,58.969,80.122,20.197,38.018,157.726,150.132,402.917,216.008,556.324,156.05,26.03,53.54,142.86,81.53,83.47,67.58,22.44,3.89,-9.07,-1.49,-4.86,-2.97,13.09,36.72,79.94,92.88,67.58,94.48,59.76,32.37,15.97,6.03,65.6,43.16,24.66,11.38,5.66,56722.0,55002,20170405,42.06655911,-91.76988343,54.62,276.337,98.426,279.303,601775.035,4657888.292,310.336,15.089,-6.749,-26.903,67.58,67.58,76.73,90.03,89.52,85.51,81.69,74.18,64.36,55.84,48.45,42.04,36.46,31.43,27.09,23.35,20.13,17.35,14.96,13.09,-99999.0
10010,601769.153,4657898.345,3890.1,279.218,249.401,58.38,82.924,222.708,53712.06,-5.719,53717.699,53954.764,-228.071,0.0009723,3.57e-05,0.0004644,18.992,29.383,58.197,77.721,20.659,38.035,129.296,122.071,383.518,205.437,526.096,152.161,20.153,30.397,59.182,80.553,20.173,37.886,132.126,126.856,405.451,217.165,559.981,157.365,20.104,30.856,59.199,80.549,20.174,37.987,157.914,152.081,405.322,217.092,559.803,157.019,26.24,53.49,143.01,82.83,83.01,67.3,22.02,3.88,-8.93,-1.75,-4.81,-2.94,13.35,36.09,82.69,92.36,67.3,94.7,59.91,32.51,15.93,6.01,65.87,43.13,24.86,11.35,5.65,56722.1,55002,20170405,42.06655995,-91.76989256,0.0,266.571,98.422,279.218,601774.471,4657888.587,310.313,14.643,-6.395,-27.424,67.3,67.3,76.43,89.65,89.88,86.93,84.08,76.68,65.92,56.67,48.71,41.87,36.0,31.2,27.05,23.44,20.32,17.61,15.27,13.35,-99999.0
10010,601768.396,4657898.427,3890.2,279.132,248.809,58.128,82.874,222.79,53712.08,-5.719,53717.747,53954.768,-228.031,0.0011655,3.74e-05,6.86e-05,19.404,29.567,58.178,77.918,20.379,38.314,129.648,123.37,386.907,206.539,529.133,152.68,20.17,30.699,59.382,80.978,20.16,37.871,132.226,128.458,407.678,218.26,563.58,158.459,20.122,31.158,59.399,80.974,20.16,37.972,158.034,154.005,407.55,218.187,563.403,158.114,26.47,53.48,143.11,84.18,82.64,67.08,21.61,3.9,-8.77,-1.97,-4.73,-2.89,13.6,35.52,85.49,91.95,67.08,94.93,60.08,32.66,15.9,6.0,66.16,43.13,25.06,11.32,5.64,56722.2,55002,20170405,42.06656079,-91.7699017,58.38,269.47,98.429,279.132,601773.908,4657888.882,310.29,14.201,-6.031,-27.944,67.08,67.08,76.2,89.36,90.32,88.38,86.49,79.32,67.58,57.58,49.06,41.8,35.61,31.02,27.03,23.55,20.52,17.88,15.58,13.6,-99999.0
10010,601767.639,4657898.509,3890.3,279.047,247.627,57.85,82.838,222.901,53712.1,-5.718,53717.794,53954.772,-227.99,0.0009104,6.04e-05,0.0002587,19.75,29.551,58.114,78.257,20.169,38.73,130.249,123.275,390.037,207.095,532.185,153.195,20.194,30.974,59.54,81.372,20.171,37.867,132.277,129.845,409.72,219.409,567.404,159.698,20.146,31.434,59.557,81.368,20.171,37.968,158.095,155.668,409.591,219.336,567.227,159.353,26.66,53.52,142.97,85.39,82.4,66.91,21.3,3.94,-8.55,-2.11,-4.62,-2.83,13.8,35.07,87.98,91.68,66.91,95.15,60.25,32.8,15.87,5.99,66.39,43.15,25.24,11.3,5.63,56722.3,55002,20170405,42.06656162,-91.76991083,57.99,270.691,98.443,279.047,601773.344,4657889.177,310.267,13.771,-5.661,-28.464,66.91,66.91,76.03,89.16,90.77,89.67,88.58,81.74,69.13,58.46,49.44,41.82,35.37,30.89,27.03,23.65,20.69,18.1,15.84,13.86,-99999.0
10010,601766.882,4657898.591,3890.4,278.962,249.401,57.538,82.81,223.04,53712.108,-5.717,53717.833,53954.775,-227.958,0.0008345,5.59e-05,0.0002425,19.949,29.448,58.013,78.633,20.126,38.99,130.796,121.834,391.955,208.172,536.264,153.727,20.223,31.188,59.654,81.716,20.228,37.867,132.302,130.912,411.65,220.614,571.379,161.119,20.175,31.647,59.671,81.712,20.229,37.968,158.125,156.95,411.522,220.541,571.201,160.773,26.78,53.59,142.34,86.34,82.25,66.84,21.15,4.02,-8.26,-2.14,-4.49,-2.74,13.92,34.78,89.92,91.52,66.84,95.3,60.39,32.92,15.86,5.98,66.54,43.18,25.38,11.29,5.63,56722.4,55002,20170405,42.06656246,-91.76991996,57.59,266.266,98.422,278.962,601772.78,4657889.472,310.243,13.363,-5.287,-28.984,66.84,66.84,75.95,89.05,91.13,90.66,90.19,83.67,70.39,59.22,49.82,41.91,35.26,30.82,27.03,23.71,20.79,18.23,15.99,14.02,-99999.0
10010,601766.125,4657898.674,3890.5,278.877,249.401,57.193,82.785,223.204,53712.096,-5.716,53717.848,53954.779,-227.949,0.0014263,3.59e-05,0.0001309,20.033,29.422,57.972,78.897,20.223,38.778,131.085,119.863,393.147,210.27,541.231,153.984,20.257,31.322,59.732,82.007,20.351,37.869,132.343,131.69,413.581,221.869,575.26,162.711,20.209,31.781,59.749,82.003,20.352,37.97,158.174,157.883,413.453,221.796,575.082,162.365,26.82,53.68,141.01,87.0,82.14,66.93,21.2,4.15,-7.85,-2.08,-4.34,-2.63,13.93,34.63,91.29,91.39,66.93,95.37,60.5,32.99,15.85,5.98,66.59,43.21,25.48,11.29,5.63,56722.5,55002,20170405,42.0665633,-91.7699291,57.17,266.571,98.422,278.877,601772.217,4657889.767,310.22,12.984,-4.911,-29.506,66.93,66.93,75.99,88.97,91.37,91.34,91.31,85.06,71.32,59.8,50.15,42.05,35.26,30.8,27.03,23.72,20.82,18.27,16.03,14.07,-99999.0
10010,601765.368,4657898.756,3890.6,278.792,248.514,56.824,82.759,223.386,53712.068,-5.716,53717.844,53954.783,-227.961,0.0009349,2.07e-05,0.0001185,20.076,29.511,58.073,79.029,20.348,38.163,131.197,118.537,394.914,212.79,545.96,154.082,20.292,31.384,59.781,82.246,20.544,37.876,132.434,132.275,415.589,223.181,578.758,164.366,20.244,31.844,59.798,82.242,20.545,37.977,158.284,158.585,415.46,223.107,578.581,164.021,26.8,53.78,138.97,87.41,82.03,67.18,21.41,4.3,-7.35,-1.95,-4.17,-2.5,13.88,34.6,92.19,91.27,67.18,95.38,60.59,33.04,15.84,5.97,66.56,43.25,25.54,11.28,5.64,56722.6,55002,20170405,42.06656414,-91.76993823,56.84,271.606,98.433,278.792,601771.653,4657890.062,310.197,12.642,-4.534,-30.03,67.18,67.18,76.13,88.92,91.49,91.76,92.03,85.99,71.97,60.25,50.43,42.21,35.33,30.82,27.02,23.7,20.78,18.23,15.98,14.02,-99999.0
10010,601764.611,4657898.838,3890.7,278.707,246.74,56.452,82.729,223.574,53712.028,-5.715,53717.827,53954.786,-227.984,0.0010579,1.6e-06,0.0001522,20.114,29.647,58.32,79.178,20.413,37.656,131.402,118.847,397.713,214.617,549.892,154.412,20.328,31.402,59.798,82.438,20.795,37.896,132.591,132.74,417.66,224.538,581.701,165.912,20.28,31.861,59.815,82.434,20.796,37.996,158.472,159.143,417.531,224.464,581.523,165.566,26.73,53.9,136.41,87.62,81.91,67.51,21.71,4.48,-6.78,-1.77,-4.0,-2.35,13.77,34.66,92.72,91.14,67.51,95.35,60.66,33.06,15.83,5.97,66.48,43.3,25.57,11.27,5.66,56722.7,55002,20170405,42.06656498,-91.76994736,56.53,274.734,98.453,278.707,601771.09,4657890.356,310.174,12.343,-4.156,-30.557,67.51,67.51,76.32,88.87,91.52,91.97,92.43,86.52,72.39,60.57,50.68,42.41,35.48,30.88,27.03,23.66,20.71,18.13,15.87,13.9,-99999.0
10010,601763.854,4657898.92,3890.8,278.621,246.149,56.099,82.698,223.754,53711.992,-5.714,53717.81,53954.79,-228.008,0.0016419,4.3e-05,0.0001275,20.138,29.767,58.667,79.52,20.398,37.638,131.811,121.116,400.793,215.351,553.301,155.168,20.366,31.401,59.782,82.59,21.084,37.94,132.806,133.119,419.675,225.888,584.145,167.174,20.318,31.86,59.799,82.586,21.085,38.041,158.73,159.598,419.547,225.815,583.967,166.828,26.65,54.04,133.61,87.67,81.82,67.76,22.05,4.65,-6.21,-1.57,-3.83,-2.18,13.63,34.82,92.91,91.03,67.76,95.31,60.71,33.06,15.82,5.97,66.38,43.36,25.58,11.26,5.67,56722.8,55002,20170405,42.06656581,-91.76995649,56.06,275.879,98.46,278.621,601770.526,4657890.651,310.151,12.091,-3.778,-31.088,67.76,67.76,76.46,88.82,91.48,92.03,92.57,86.73,72.63,60.82,50.93,42.64,35.71,31.0,27.07,23.64,20.64,18.03,15.74,13.75,-99999.0
10010,601763.097,4657899.002,3890.9,278.536,247.036,55.784,82.668,223.911,53711.972,-5.714,53717.81,53954.794,-228.016,0.0012388,6e-05,0.0003285,20.146,29.922,59.025,80.072,20.309,37.909,132.228,124.609,403.415,215.756,556.594,156.244,20.403,31.39,59.73,82.714,21.389,38.015,133.053,133.452,421.458,227.149,586.362,168.051,20.355,31.849,59.747,82.71,21.389,38.116,159.027,159.998,421.329,227.076,586.185,167.706,26.55,54.21,130.84,87.64,81.78,67.78,22.38,4.81,-5.68,-1.38,-3.68,-2.02,13.48,35.06,92.89,90.99,67.78,95.27,60.77,33.06,15.82,5.97,66.26,43.43,25.57,11.26,5.67,56722.9,55002,20170405,42.06656665,-91.76996563,55.54,272.751,98.45,278.536,601769.963,4657890.946,310.128,11.89,-3.4,-31.624,67.78,67.78,76.46,88.79,91.44,91.99,92.55,86.75,72.76,61.03,51.19,42.94,36.02,31.18,27.15,23.63,20.58,17.91,15.6,13.58,-99999.0
